{
"type": "FeatureCollection",
"crs": { "type": "name", "properties": { "name": "urn:ogc:def:crs:OGC:1.3:CRS84" } },
"features": [
{ "type": "Feature", "properties": { "Name": "Thelopotamo", "Type": "Inhabited Villa", "ElevationC": 1 }, "geometry": { "type": "Point", "coordinates": [ 38.265925509843164, 22.017121161639061 ] } },
{ "type": "Feature", "properties": { "Name": "Alimocturi", "Type": "Inhabited Zeog", "ElevationC": 2 }, "geometry": { "type": "Point", "coordinates": [ 38.253495229637792, 22.006893381402847 ] } },
{ "type": "Feature", "properties": { "Name": "Mirtidi", "Type": "Inhabited Villa", "ElevationC": 3 }, "geometry": { "type": "Point", "coordinates": [ 38.244298545543415, 22.008807376507693 ] } },
{ "type": "Feature", "properties": { "Name": "Tumba", "Type": "Inhabited Villa", "ElevationC": 4 }, "geometry": { "type": "Point", "coordinates": [ 38.237708941122641, 21.984530294788993 ] } },
{ "type": "Feature", "properties": { "Name": "Dimitropulo", "Type": "Mettochi", "ElevationC": 1 }, "geometry": { "type": "Point", "coordinates": [ 38.248078279752306, 22.046882337809912 ] } },
{ "type": "Feature", "properties": { "Name": "S. Zorzi di Cazi", "Type": "Deserted Zeog", "ElevationC": 3 }, "geometry": { "type": "Point", "coordinates": [ 38.225784217069936, 22.033338177243564 ] } },
{ "type": "Feature", "properties": { "Name": "Cumari", "Type": "Inhabited Zeog", "ElevationC": 3 }, "geometry": { "type": "Point", "coordinates": [ 38.224529379887066, 22.040423764125372 ] } },
{ "type": "Feature", "properties": { "Name": "Lucha", "Type": "Inhabited Zeog", "ElevationC": 3 }, "geometry": { "type": "Point", "coordinates": [ 38.217985969102081, 22.032094458182947 ] } },
{ "type": "Feature", "properties": { "Name": "Eftapites", "Type": "Inhabited Villa", "ElevationC": 3 }, "geometry": { "type": "Point", "coordinates": [ 38.224714414468032, 22.005514116889071 ] } },
{ "type": "Feature", "properties": { "Name": "Paleo Castro", "Type": "Older Site", "ElevationC": 4 }, "geometry": { "type": "Point", "coordinates": [ 38.225084511992108, 21.990027723810478 ] } },
{ "type": "Feature", "properties": { "Name": "Gligori", "Type": "Inhabited Villa", "ElevationC": 5 }, "geometry": { "type": "Point", "coordinates": [ 38.230692588256822, 21.982395191097392 ] } },
{ "type": "Feature", "properties": { "Name": "Catu Greca", "Type": "Deserted Villa", "ElevationC": 4 }, "geometry": { "type": "Point", "coordinates": [ 38.220046542335275, 21.979456174858921 ] } },
{ "type": "Feature", "properties": { "Name": "Paleo Castro", "Type": "Older Site", "ElevationC": 4 }, "geometry": { "type": "Point", "coordinates": [ 38.218718119654653, 21.967121794090581 ] } },
{ "type": "Feature", "properties": { "Name": "Panu Greca", "Type": "Inhabited Villa", "ElevationC": 5 }, "geometry": { "type": "Point", "coordinates": [ 38.217511906734593, 21.954260525457908 ] } },
{ "type": "Feature", "properties": { "Name": "Caco Corio", "Type": "Inhabited Villa", "ElevationC": 3 }, "geometry": { "type": "Point", "coordinates": [ 38.212945634102667, 21.994472133195384 ] } },
{ "type": "Feature", "properties": { "Name": "Aracoua", "Type": "Inhabited Villa", "ElevationC": 5 }, "geometry": { "type": "Point", "coordinates": [ 38.200564054313141, 21.956456636796833 ] } },
{ "type": "Feature", "properties": { "Name": "Paraschieui", "Type": "Inhabited Villa", "ElevationC": 4 }, "geometry": { "type": "Point", "coordinates": [ 38.193399570076537, 21.97947681989595 ] } },
{ "type": "Feature", "properties": { "Name": "Bogdano", "Type": "Deserted Villa", "ElevationC": 6 }, "geometry": { "type": "Point", "coordinates": [ 38.183257847539238, 21.951396695545721 ] } },
{ "type": "Feature", "properties": { "Name": "Bordano", "Type": "Inhabited Villa", "ElevationC": 7 }, "geometry": { "type": "Point", "coordinates": [ 38.188114651748513, 21.933030477508765 ] } },
{ "type": "Feature", "properties": { "Name": "Franca", "Type": "Inhabited Villa", "ElevationC": 7 }, "geometry": { "type": "Point", "coordinates": [ 38.180594804832673, 21.926590663979376 ] } },
{ "type": "Feature", "properties": { "Name": "Lopesi", "Type": "Deserted Villa", "ElevationC": 7 }, "geometry": { "type": "Point", "coordinates": [ 38.17560926190589, 21.938836869948272 ] } },
{ "type": "Feature", "properties": { "Name": "Cugnina", "Type": "Inhabited Villa", "ElevationC": 5 }, "geometry": { "type": "Point", "coordinates": [ 38.172214896257621, 22.003282050995679 ] } },
{ "type": "Feature", "properties": { "Name": "Madona Pepegliniza", "Type": "Monastery", "ElevationC": 5 }, "geometry": { "type": "Point", "coordinates": [ 38.178104850388408, 22.011594452363404 ] } },
{ "type": "Feature", "properties": { "Name": "S. Michel Arcangello", "Type": "Monastery", "ElevationC": 3 }, "geometry": { "type": "Point", "coordinates": [ 38.175552255181884, 22.037688003765261 ] } },
{ "type": "Feature", "properties": { "Name": "Sternegliza", "Type": "Mettochi", "ElevationC": 3 }, "geometry": { "type": "Point", "coordinates": [ 38.186571401842293, 22.06533655265283 ] } },
{ "type": "Feature", "properties": { "Name": "Chiesa della Madona", "Type": "Church", "ElevationC": 3 }, "geometry": { "type": "Point", "coordinates": [ 38.180781540474186, 22.066158496250956 ] } },
{ "type": "Feature", "properties": { "Name": "Mauricchi", "Type": "Inhabited Villa", "ElevationC": 6 }, "geometry": { "type": "Point", "coordinates": [ 38.146488888166715, 22.027764779897879 ] } },
{ "type": "Feature", "properties": { "Name": "Pandalemona S. Pantelon", "Type": "Inhabited Villa", "ElevationC": 6 }, "geometry": { "type": "Point", "coordinates": [ 38.1373762739886, 22.066960660115893 ] } },
{ "type": "Feature", "properties": { "Name": "Fteri", "Type": "Inhabited Villa", "ElevationC": 7 }, "geometry": { "type": "Point", "coordinates": [ 38.147665261512152, 22.069601627519372 ] } },
{ "type": "Feature", "properties": { "Name": "Mamusa", "Type": "Inhabited Villa", "ElevationC": 6 }, "geometry": { "type": "Point", "coordinates": [ 38.142203009641136, 22.143192308165009 ] } },
{ "type": "Feature", "properties": { "Name": "Bucuschia Pano", "Type": "Inhabited Villa", "ElevationC": 5 }, "geometry": { "type": "Point", "coordinates": [ 38.155466563330073, 22.11531501886412 ] } },
{ "type": "Feature", "properties": { "Name": "Theodorio", "Type": "Deserted Zeog", "ElevationC": 5 }, "geometry": { "type": "Point", "coordinates": [ 38.152430391339365, 22.139728319589782 ] } },
{ "type": "Feature", "properties": { "Name": "Bucuschia Cato", "Type": "Inhabited Villa", "ElevationC": 3 }, "geometry": { "type": "Point", "coordinates": [ 38.163206509602091, 22.13498835737996 ] } },
{ "type": "Feature", "properties": { "Name": "Potamia", "Type": "Inhabited Villa", "ElevationC": 5 }, "geometry": { "type": "Point", "coordinates": [ 38.108511211373532, 22.243991958741947 ] } },
{ "type": "Feature", "properties": { "Name": "Cherniza", "Type": "Machala", "ElevationC": 6 }, "geometry": { "type": "Point", "coordinates": [ 38.122192519227056, 22.21260609801195 ] } },
{ "type": "Feature", "properties": { "Name": "Vrostena", "Type": "Machala", "ElevationC": 5 }, "geometry": { "type": "Point", "coordinates": [ 38.132147852959754, 22.206808606608764 ] } },
{ "type": "Feature", "properties": { "Name": "Piscopi", "Type": "Machala", "ElevationC": 4 }, "geometry": { "type": "Point", "coordinates": [ 38.137247609817457, 22.226667363740511 ] } },
{ "type": "Feature", "properties": { "Name": "Castro", "Type": "Machala", "ElevationC": 3 }, "geometry": { "type": "Point", "coordinates": [ 38.144321502307825, 22.217123936281784 ] } },
{ "type": "Feature", "properties": { "Name": "Plessa", "Type": "Inhabited Villa", "ElevationC": 5 }, "geometry": { "type": "Point", "coordinates": [ 38.112977901470174, 22.299448628605401 ] } },
{ "type": "Feature", "properties": { "Name": "Pirgo", "Type": "Inhabited Villa", "ElevationC": 4 }, "geometry": { "type": "Point", "coordinates": [ 38.123400144074196, 22.289521538910012 ] } },
{ "type": "Feature", "properties": { "Name": "Porouizza", "Type": "Inhabited Villa", "ElevationC": 5 }, "geometry": { "type": "Point", "coordinates": [ 38.136338717699495, 22.310806658747943 ] } },
{ "type": "Feature", "properties": { "Name": "S. Nicolo", "Type": "Monastery", "ElevationC": 4 }, "geometry": { "type": "Point", "coordinates": [ 38.156391517325432, 22.225855592117728 ] } },
{ "type": "Feature", "properties": { "Name": "Aia Mogni", "Type": "Monastery", "ElevationC": 4 }, "geometry": { "type": "Point", "coordinates": [ 38.173204312638347, 22.202577054975794 ] } },
{ "type": "Feature", "properties": { "Name": "Gardena, e M. di Ierusale", "Type": "Monastery", "ElevationC": 3 }, "geometry": { "type": "Point", "coordinates": [ 38.200606110036482, 22.126428188074762 ] } },
{ "type": "Feature", "properties": { "Name": "S. Zuanne", "Type": "Inhabited Villa", "ElevationC": 3 }, "geometry": { "type": "Point", "coordinates": [ 38.209880256244091, 22.116598289702598 ] } },
{ "type": "Feature", "properties": { "Name": "Rizomilo", "Type": "Inhabited Zeog", "ElevationC": 1 }, "geometry": { "type": "Point", "coordinates": [ 38.20912350683107, 22.133359046591174 ] } },
{ "type": "Feature", "properties": { "Name": "Trano", "Type": "Inhabited Zeog", "ElevationC": 1 }, "geometry": { "type": "Point", "coordinates": [ 38.215346172005979, 22.124766465844139 ] } },
{ "type": "Feature", "properties": { "Name": "Terrazza Pano", "Type": "Deserted Zeog", "ElevationC": 1 }, "geometry": { "type": "Point", "coordinates": [ 38.223631508163358, 22.137211290914866 ] } },
{ "type": "Feature", "properties": { "Name": "Terrazza Cato", "Type": "Inhabited Villa", "ElevationC": 1 }, "geometry": { "type": "Point", "coordinates": [ 38.224001775046261, 22.142053298464329 ] } },
{ "type": "Feature", "properties": { "Name": "Caragmati", "Type": "Inhabited Zeog", "ElevationC": 1 }, "geometry": { "type": "Point", "coordinates": [ 38.228911218941647, 22.139862930969649 ] } },
{ "type": "Feature", "properties": { "Name": "Temegni Panu", "Type": "Inhabited Zeog", "ElevationC": 1 }, "geometry": { "type": "Point", "coordinates": [ 38.233594889774807, 22.130186709397485 ] } },
{ "type": "Feature", "properties": { "Name": "Muftiri", "Type": "Deserted Zeog", "ElevationC": 1 }, "geometry": { "type": "Point", "coordinates": [ 38.227746791784007, 22.112110474508988 ] } },
{ "type": "Feature", "properties": { "Name": "Palio Crocoua", "Type": "Inhabited Villa", "ElevationC": 3 }, "geometry": { "type": "Point", "coordinates": [ 38.209424752877659, 22.088939506220562 ] } },
{ "type": "Feature", "properties": { "Name": "Crocoua", "Type": "Inhabited Villa", "ElevationC": 1 }, "geometry": { "type": "Point", "coordinates": [ 38.221559342472638, 22.091765118062831 ] } },
{ "type": "Feature", "properties": { "Name": "Temegni Catu", "Type": "Inhabited Zeog", "ElevationC": 1 }, "geometry": { "type": "Point", "coordinates": [ 38.238458263870903, 22.132756181034345 ] } },
{ "type": "Feature", "properties": { "Name": "Vostizza", "Type": "Inhabited Villa", "ElevationC": 1 }, "geometry": { "type": "Point", "coordinates": [ 38.250051196401841, 22.092040071821035 ] } },
{ "type": "Feature", "properties": { "Name": "Vouoda", "Type": "Inhabited Villa", "ElevationC": 3 }, "geometry": { "type": "Point", "coordinates": [ 38.210332943434629, 22.061376363248403 ] } },
{ "type": "Feature", "properties": { "Name": "Cachu", "Type": "Inhabited Zeog", "ElevationC": 1 }, "geometry": { "type": "Point", "coordinates": [ 38.239947974730342, 22.091090098118197 ] } }
]
}
